[
  {
    "type": "node",
    "id": 265840163,
    "name": "北郷",
    "lat": 31.6781426,
    "lon": 131.3736336
  },
  {
    "type": "node",
    "id": 265840173,
    "name": "伊比井",
    "lat": 31.7110111,
    "lon": 131.4561455
  },
  {
    "type": "node",
    "id": 265840178,
    "name": "福島今町",
    "lat": 31.4569028,
    "lon": 131.2033174
  },
  {
    "type": "node",
    "id": 265840182,
    "name": "大堂津",
    "lat": 31.5570545,
    "lon": 131.3823226
  },
  {
    "type": "node",
    "id": 265840237,
    "name": "木花",
    "lat": 31.8314754,
    "lon": 131.4367719
  },
  {
    "type": "node",
    "id": 265840399,
    "name": "子供の国",
    "lat": 31.8072738,
    "lon": 131.4570693
  },
  {
    "type": "node",
    "id": 265840403,
    "name": "内之田",
    "lat": 31.64257,
    "lon": 131.372654
  },
  {
    "type": "node",
    "id": 265840406,
    "name": "谷之口",
    "lat": 31.5337292,
    "lon": 131.3446722
  },
  {
    "type": "node",
    "id": 265840453,
    "name": "日向北方",
    "lat": 31.4833201,
    "lon": 131.2433335
  },
  {
    "type": "node",
    "id": 265840465,
    "name": "飫肥",
    "lat": 31.6273825,
    "lon": 131.3619584
  },
  {
    "type": "node",
    "id": 265840695,
    "name": "日南",
    "lat": 31.6031361,
    "lon": 131.3812045
  },
  {
    "type": "node",
    "id": 265840829,
    "name": "小内海",
    "lat": 31.7377864,
    "lon": 131.4658756
  },
  {
    "type": "node",
    "id": 265841028,
    "name": "南方",
    "lat": 31.8592747,
    "lon": 131.4345818
  },
  {
    "type": "node",
    "id": 265841035,
    "name": "青島",
    "lat": 31.7997348,
    "lon": 131.4670192
  },
  {
    "type": "node",
    "id": 265841049,
    "name": "串間",
    "lat": 31.4628354,
    "lon": 131.2305132
  },
  {
    "type": "node",
    "id": 265841051,
    "name": "油津",
    "lat": 31.5867567,
    "lon": 131.3962637
  },
  {
    "type": "node",
    "id": 265841057,
    "name": "大隅夏井",
    "lat": 31.4698302,
    "lon": 131.1363203
  },
  {
    "type": "node",
    "id": 265841065,
    "name": "南郷",
    "lat": 31.5360072,
    "lon": 131.3726464
  },
  {
    "type": "node",
    "id": 265841069,
    "name": "折生迫",
    "lat": 31.7895063,
    "lon": 131.4675091
  },
  {
    "type": "node",
    "id": 265841081,
    "name": "榎原",
    "lat": 31.5347974,
    "lon": 131.3064175
  },
  {
    "type": "node",
    "id": 265841135,
    "name": "曽山寺",
    "lat": 31.8133583,
    "lon": 131.4483391
  },
  {
    "type": "node",
    "id": 265841271,
    "name": "日向大束",
    "lat": 31.5106775,
    "lon": 131.248623
  },
  {
    "type": "node",
    "id": 265842809,
    "name": "内海",
    "lat": 31.7586564,
    "lon": 131.4672973
  },
  {
    "type": "node",
    "id": 265842911,
    "name": "運動公園",
    "lat": 31.8197182,
    "lon": 131.4425394
  },
  {
    "type": "node",
    "id": 265843712,
    "name": "福島高松",
    "lat": 31.4585974,
    "lon": 131.1783161
  },
  {
    "type": "node",
    "id": 265844831,
    "name": "日向長井",
    "lat": 32.6640664,
    "lon": 131.6998459
  },
  {
    "type": "node",
    "id": 265845102,
    "name": "北川",
    "lat": 32.6903504,
    "lon": 131.6977206
  },
  {
    "type": "node",
    "id": 265845309,
    "name": "市棚",
    "lat": 32.7280323,
    "lon": 131.7101607
  },
  {
    "type": "node",
    "id": 265845469,
    "name": "北延岡",
    "lat": 32.6306797,
    "lon": 131.6900421
  },
  {
    "type": "node",
    "id": 265845566,
    "name": "直川",
    "lat": 32.8985989,
    "lon": 131.7794331
  },
  {
    "type": "node",
    "id": 265847097,
    "name": "重岡",
    "lat": 32.8404292,
    "lon": 131.7156632
  },
  {
    "type": "node",
    "id": 265848020,
    "name": "霧島神宮",
    "lat": 31.818656,
    "lon": 130.8365659
  },
  {
    "type": "node",
    "id": 265848022,
    "name": "青井岳",
    "lat": 31.8276588,
    "lon": 131.2184348
  },
  {
    "type": "node",
    "id": 265848024,
    "name": "加納",
    "lat": 31.8759623,
    "lon": 131.4061056
  },
  {
    "type": "node",
    "id": 265848070,
    "name": "西都城",
    "lat": 31.723521,
    "lon": 131.0569811
  },
  {
    "type": "node",
    "id": 265848359,
    "name": "五十市",
    "lat": 31.7185779,
    "lon": 131.0335635
  },
  {
    "type": "node",
    "id": 265848402,
    "name": "清武",
    "lat": 31.8593828,
    "lon": 131.3892315
  },
  {
    "type": "node",
    "id": 265848408,
    "name": "北俣",
    "lat": 31.7449627,
    "lon": 130.960022
  },
  {
    "type": "node",
    "id": 265848414,
    "name": "財部",
    "lat": 31.7287715,
    "lon": 130.9916418
  },
  {
    "type": "node",
    "id": 265848530,
    "name": "隼人",
    "lat": 31.743887,
    "lon": 130.7402683
  },
  {
    "type": "node",
    "id": 265848751,
    "name": "田野",
    "lat": 31.8378604,
    "lon": 131.3049544
  },
  {
    "type": "node",
    "id": 265849089,
    "name": "日向沓掛",
    "lat": 31.8421733,
    "lon": 131.3448481
  },
  {
    "type": "node",
    "id": 265849213,
    "name": "大隅大川原",
    "lat": 31.7727585,
    "lon": 130.9249744
  },
  {
    "type": "node",
    "id": 265849275,
    "name": "三股",
    "lat": 31.7338903,
    "lon": 131.1199481
  },
  {
    "type": "node",
    "id": 265849385,
    "name": "山之口",
    "lat": 31.7831214,
    "lon": 131.1529956
  },
  {
    "type": "node",
    "id": 265851170,
    "name": "餅原",
    "lat": 31.7570049,
    "lon": 131.132678
  },
  {
    "type": "node",
    "id": 265851737,
    "name": "国分",
    "lat": 31.7436681,
    "lon": 130.7634464
  },
  {
    "type": "node",
    "id": 265851739,
    "name": "北永野田",
    "lat": 31.7823288,
    "lon": 130.8740204
  },
  {
    "type": "node",
    "id": 265852656,
    "name": "えびの",
    "lat": 32.0422993,
    "lon": 130.8159272
  },
  {
    "type": "node",
    "id": 265852665,
    "name": "えびの飯野",
    "lat": 32.0304524,
    "lon": 130.8706681
  },
  {
    "type": "node",
    "id": 265852672,
    "name": "えびの上江",
    "lat": 32.0356098,
    "lon": 130.8500084
  },
  {
    "type": "node",
    "id": 265852821,
    "name": "高原",
    "lat": 31.9268539,
    "lon": 130.9988134
  },
  {
    "type": "node",
    "id": 265852825,
    "name": "西小林",
    "lat": 32.0095409,
    "lon": 130.9217282
  },
  {
    "type": "node",
    "id": 265852835,
    "name": "京町温泉",
    "lat": 32.0453249,
    "lon": 130.7676343
  },
  {
    "type": "node",
    "id": 265852840,
    "name": "広原",
    "lat": 31.958065,
    "lon": 130.984816
  },
  {
    "type": "node",
    "id": 265853640,
    "name": "東高崎",
    "lat": 31.8408469,
    "lon": 131.0651592
  },
  {
    "type": "node",
    "id": 265853664,
    "name": "高崎新田",
    "lat": 31.8762741,
    "lon": 131.062472
  },
  {
    "type": "node",
    "id": 265853669,
    "name": "小林",
    "lat": 31.9909634,
    "lon": 130.9756879
  },
  {
    "type": "node",
    "id": 265853785,
    "name": "鶴丸",
    "lat": 32.0306628,
    "lon": 130.7488093
  },
  {
    "type": "node",
    "id": 265853919,
    "name": "日向前田",
    "lat": 31.908543,
    "lon": 131.040666
  },
  {
    "type": "node",
    "id": 265854033,
    "name": "万ヶ塚",
    "lat": 31.8173891,
    "lon": 131.0640691
  },
  {
    "type": "node",
    "id": 265854049,
    "name": "谷頭",
    "lat": 31.7887804,
    "lon": 131.0541646
  },
  {
    "type": "node",
    "id": 265854233,
    "name": "都城",
    "lat": 31.7365393,
    "lon": 131.0744458
  },
  {
    "type": "node",
    "id": 265855422,
    "name": "瀬田",
    "lat": 32.8726723,
    "lon": 130.9136156
  },
  {
    "type": "node",
    "id": 265863392,
    "name": "立野",
    "lat": 32.877493,
    "lon": 130.9655332
  },
  {
    "type": "node",
    "id": 265889650,
    "name": "宮崎空港",
    "lat": 31.8724607,
    "lon": 131.4401622
  },
  {
    "type": "node",
    "id": 265908658,
    "name": "大畑",
    "lat": 32.1648294,
    "lon": 130.7875085
  },
  {
    "type": "node",
    "id": 265909635,
    "name": "西人吉",
    "lat": 32.2285306,
    "lon": 130.7253963
  },
  {
    "type": "node",
    "id": 265913448,
    "name": "真幸",
    "lat": 32.0746702,
    "lon": 130.7294089
  },
  {
    "type": "node",
    "id": 265915961,
    "name": "矢岳",
    "lat": 32.1043058,
    "lon": 130.7698091
  },
  {
    "type": "node",
    "id": 265921370,
    "name": "中福良",
    "lat": 31.814166,
    "lon": 130.732755
  },
  {
    "type": "node",
    "id": 265921575,
    "name": "表木山",
    "lat": 31.7964449,
    "lon": 130.7452663
  },
  {
    "type": "node",
    "id": 265922040,
    "name": "栗野",
    "lat": 31.9502158,
    "lon": 130.7225826
  },
  {
    "type": "node",
    "id": 265922055,
    "name": "植村",
    "lat": 31.8899135,
    "lon": 130.724304
  },
  {
    "type": "node",
    "id": 265922334,
    "name": "嘉例川",
    "lat": 31.8267663,
    "lon": 130.7227244
  },
  {
    "type": "node",
    "id": 265922678,
    "name": "大隅横川",
    "lat": 31.9057345,
    "lon": 130.7032271
  },
  {
    "type": "node",
    "id": 265922682,
    "name": "霧島温泉",
    "lat": 31.868439,
    "lon": 130.734309
  },
  {
    "type": "node",
    "id": 265923414,
    "name": "日当山",
    "lat": 31.7634765,
    "lon": 130.7498234
  },
  {
    "type": "node",
    "id": 265926986,
    "name": "湯前",
    "lat": 32.281475,
    "lon": 130.979927
  },
  {
    "type": "node",
    "id": 265926992,
    "name": "一武",
    "lat": 32.2145539,
    "lon": 130.8399247
  },
  {
    "type": "node",
    "id": 265927179,
    "name": "多良木",
    "lat": 32.2629818,
    "lon": 130.9336057
  },
  {
    "type": "node",
    "id": 265927185,
    "name": "木上",
    "lat": 32.2241381,
    "lon": 130.8586812
  },
  {
    "type": "node",
    "id": 265927188,
    "name": "公立病院前",
    "lat": 32.255852,
    "lon": 130.921579
  },
  {
    "type": "node",
    "id": 265927239,
    "name": "あさぎり",
    "lat": 32.2363192,
    "lon": 130.8939365
  },
  {
    "type": "node",
    "id": 265927760,
    "name": "東多良木",
    "lat": 32.2721553,
    "lon": 130.9504449
  },
  {
    "type": "node",
    "id": 265927763,
    "name": "川村",
    "lat": 32.2072475,
    "lon": 130.7957172
  },
  {
    "type": "node",
    "id": 265928336,
    "name": "おかどめ幸福",
    "lat": 32.231476,
    "lon": 130.8751642
  },
  {
    "type": "node",
    "id": 265928341,
    "name": "新鶴羽",
    "lat": 32.2754172,
    "lon": 130.9659264
  },
  {
    "type": "node",
    "id": 265928422,
    "name": "肥後西村",
    "lat": 32.2023276,
    "lon": 130.808893
  },
  {
    "type": "node",
    "id": 265928642,
    "name": "東免田",
    "lat": 32.250454,
    "lon": 130.913356
  },
  {
    "type": "node",
    "id": 265928862,
    "name": "相良藩願成寺",
    "lat": 32.218354,
    "lon": 130.7695692
  },
  {
    "type": "node",
    "id": 270048203,
    "name": "高千穂",
    "lat": 32.714733,
    "lon": 131.3066171
  },
  {
    "type": "node",
    "id": 270882948,
    "name": "須屋",
    "lat": 32.8578544,
    "lon": 130.7364825
  },
  {
    "type": "node",
    "id": 270882963,
    "name": "黒石",
    "lat": 32.87037,
    "lon": 130.7421145
  },
  {
    "type": "node",
    "id": 270882968,
    "name": "熊本高専前",
    "lat": 32.8780629,
    "lon": 130.7462118
  },
  {
    "type": "node",
    "id": 270882995,
    "name": "堀川",
    "lat": 32.8491817,
    "lon": 130.7253738
  },
  {
    "type": "node",
    "id": 270882996,
    "name": "韓々坂",
    "lat": 32.8241696,
    "lon": 130.7018919
  },
  {
    "type": "node",
    "id": 270882998,
    "name": "三ツ石",
    "lat": 32.8640617,
    "lon": 130.738365
  },
  {
    "type": "node",
    "id": 270883013,
    "name": "打越",
    "lat": 32.823725,
    "lon": 130.7138201
  },
  {
    "type": "node",
    "id": 270883019,
    "name": "池田",
    "lat": 32.8270635,
    "lon": 130.7074969
  },
  {
    "type": "node",
    "id": 270883066,
    "name": "亀井",
    "lat": 32.8374676,
    "lon": 130.7222167
  },
  {
    "type": "node",
    "id": 270883077,
    "name": "八景水谷",
    "lat": 32.841456,
    "lon": 130.7228019
  },
  {
    "type": "node",
    "id": 270883421,
    "name": "坪井川公園",
    "lat": 32.8214305,
    "lon": 130.7187315
  },
  {
    "type": "node",
    "id": 270902069,
    "name": "黒髪町",
    "lat": 32.8183497,
    "lon": 130.7172317
  },
  {
    "type": "node",
    "id": 270902071,
    "name": "藤崎宮前",
    "lat": 32.808672,
    "lon": 130.713214
  },
  {
    "type": "node",
    "id": 360077659,
    "name": "南阿蘇水の生まれる里白水高原",
    "lat": 32.8341732,
    "lon": 131.0401642
  },
  {
    "type": "node",
    "id": 360077663,
    "name": "長陽",
    "lat": 32.8541971,
    "lon": 131.0039609
  },
  {
    "type": "node",
    "id": 360077825,
    "name": "阿蘇下田城ふれあい温泉",
    "lat": 32.844346,
    "lon": 131.024594
  },
  {
    "type": "node",
    "id": 360077848,
    "name": "阿蘇白川",
    "lat": 32.8223464,
    "lon": 131.0841912
  },
  {
    "type": "node",
    "id": 360077902,
    "name": "中松",
    "lat": 32.8274526,
    "lon": 131.0535291
  },
  {
    "type": "node",
    "id": 360077913,
    "name": "加勢",
    "lat": 32.847476,
    "lon": 131.010223
  },
  {
    "type": "node",
    "id": 360077969,
    "name": "高森",
    "lat": 32.8193294,
    "lon": 131.1225347
  },
  {
    "type": "node",
    "id": 360077976,
    "name": "見晴台",
    "lat": 32.8175191,
    "lon": 131.1097956
  },
  {
    "type": "node",
    "id": 2760698272,
    "name": "新須屋",
    "lat": 32.8538993,
    "lon": 130.7325073
  },
  {
    "type": "node",
    "id": 2766770115,
    "name": "西里",
    "lat": 32.8545648,
    "lon": 130.700083
  },
  {
    "type": "node",
    "id": 2932373435,
    "name": "南阿蘇白川水源",
    "lat": 32.8222018,
    "lon": 131.0916152
  },
  {
    "type": "node",
    "id": 3959369748,
    "name": "日向新富",
    "lat": 32.0722942,
    "lon": 131.5015379
  },
  {
    "type": "node",
    "id": 4008342859,
    "name": "南宮崎",
    "lat": 31.8951321,
    "lon": 131.4226735
  },
  {
    "type": "node",
    "id": 4838112998,
    "name": "志布志",
    "lat": 31.4731555,
    "lon": 131.0983649
  },
  {
    "type": "node",
    "id": 5694796635,
    "name": "南延岡",
    "lat": 32.5595357,
    "lon": 131.6768649
  },
  {
    "type": "node",
    "id": 5726627473,
    "name": "宮崎",
    "lat": 31.9157538,
    "lon": 131.4319526
  },
  {
    "type": "node",
    "id": 6022131030,
    "name": "日向庄内",
    "lat": 31.7622233,
    "lon": 131.0615539
  },
  {
    "type": "node",
    "id": 6375694030,
    "name": "吉松",
    "lat": 32.0120072,
    "lon": 130.7381295
  },
  {
    "type": "node",
    "id": 7811215242,
    "name": "人吉温泉",
    "lat": 32.216332,
    "lon": 130.7538443
  },
  {
    "type": "node",
    "id": 7811215243,
    "name": "人吉",
    "lat": 32.2159006,
    "lon": 130.7532196
  },
  {
    "type": "node",
    "id": 7839902388,
    "name": "北熊本",
    "lat": 32.8275289,
    "lon": 130.721892
  },
  {
    "type": "node",
    "id": 8149015847,
    "name": "延岡",
    "lat": 32.5898056,
    "lon": 131.6722583
  },
  {
    "type": "node",
    "id": 8269550065,
    "name": "宗太郎",
    "lat": 32.7860056,
    "lon": 131.7068807
  },
  {
    "type": "node",
    "id": 8286305611,
    "name": "土々呂",
    "lat": 32.5077977,
    "lon": 131.6749657
  },
  {
    "type": "node",
    "id": 8286371151,
    "name": "旭ヶ丘",
    "lat": 32.5281525,
    "lon": 131.6813733
  },
  {
    "type": "node",
    "id": 8287672880,
    "name": "門川",
    "lat": 32.4773491,
    "lon": 131.6539272
  },
  {
    "type": "node",
    "id": 8288025724,
    "name": "財光寺",
    "lat": 32.4055287,
    "lon": 131.6276573
  },
  {
    "type": "node",
    "id": 8288025764,
    "name": "日向市",
    "lat": 32.4257662,
    "lon": 131.6279925
  },
  {
    "type": "node",
    "id": 8289383195,
    "name": "南日向",
    "lat": 32.369681,
    "lon": 131.6276854
  },
  {
    "type": "node",
    "id": 8289746110,
    "name": "美々津",
    "lat": 32.3259681,
    "lon": 131.6022507
  },
  {
    "type": "node",
    "id": 8291924411,
    "name": "都農",
    "lat": 32.2509827,
    "lon": 131.5682475
  },
  {
    "type": "node",
    "id": 8292115036,
    "name": "川南",
    "lat": 32.192188,
    "lon": 131.5531931
  },
  {
    "type": "node",
    "id": 8292203746,
    "name": "高鍋",
    "lat": 32.122192,
    "lon": 131.5334675
  },
  {
    "type": "node",
    "id": 8293385039,
    "name": "田吉",
    "lat": 31.8792032,
    "lon": 131.4303808
  },
  {
    "type": "node",
    "id": 8295253832,
    "name": "佐土原",
    "lat": 32.0223663,
    "lon": 131.4771156
  },
  {
    "type": "node",
    "id": 8295592571,
    "name": "宮崎神宮",
    "lat": 31.9384255,
    "lon": 131.430539
  },
  {
    "type": "node",
    "id": 8295592585,
    "name": "蓮ヶ池",
    "lat": 31.960183,
    "lon": 131.442837
  },
  {
    "type": "node",
    "id": 8295592598,
    "name": "日向住吉",
    "lat": 31.9907692,
    "lon": 131.4576213
  },
  {
    "type": "node",
    "id": 8404097085,
    "name": "東都農",
    "lat": 32.2904225,
    "lon": 131.5820648
  },
  {
    "type": "node",
    "id": 8423867176,
    "name": "園内モノレールのりば",
    "lat": 32.7735647,
    "lon": 130.749594
  },
  {
    "type": "node",
    "id": 8423867177,
    "name": "子ども列車のりば",
    "lat": 32.7741072,
    "lon": 130.7489933
  },
  {
    "type": "node",
    "id": 10090917077,
    "name": "再春医療センター前",
    "lat": 32.8802858,
    "lon": 130.7479436
  },
  {
    "type": "node",
    "id": 10090917104,
    "name": "御代志",
    "lat": 32.8831578,
    "lon": 130.7498792
  },
  {
    "type": "node",
    "id": 11758716722,
    "name": "水前寺",
    "lat": 32.7970358,
    "lon": 130.72991
  },
  {
    "type": "node",
    "id": 12065903940,
    "name": "中松",
    "lat": 32.8274319,
    "lon": 131.0535058
  },
  {
    "type": "node",
    "id": 12411667780,
    "name": "客室棟",
    "lat": 31.8677438,
    "lon": 130.8715116
  },
  {
    "type": "node",
    "id": 12411667785,
    "name": "湯浴み小屋",
    "lat": 31.8667403,
    "lon": 130.8702671
  },
  {
    "type": "node",
    "id": 12504059294,
    "name": "肥後大津",
    "lat": 32.8774776,
    "lon": 130.866219
  },
  {
    "type": "node",
    "id": 12504078501,
    "name": "原水",
    "lat": 32.8706193,
    "lon": 130.8290416
  },
  {
    "type": "node",
    "id": 12504078502,
    "name": "三里木",
    "lat": 32.8618003,
    "lon": 130.7966003
  },
  {
    "type": "node",
    "id": 12504078504,
    "name": "光の森",
    "lat": 32.8578789,
    "lon": 130.7869028
  },
  {
    "type": "node",
    "id": 12504078505,
    "name": "武蔵塚",
    "lat": 32.8497989,
    "lon": 130.7699767
  },
  {
    "type": "node",
    "id": 12504078506,
    "name": "竜田口",
    "lat": 32.8205371,
    "lon": 130.7469486
  },
  {
    "type": "node",
    "id": 12504078507,
    "name": "東海学園前",
    "lat": 32.8114571,
    "lon": 130.7427813
  },
  {
    "type": "node",
    "id": 12504078508,
    "name": "新水前寺",
    "lat": 32.793643,
    "lon": 130.7260874
  },
  {
    "type": "node",
    "id": 12504078509,
    "name": "南熊本",
    "lat": 32.7850279,
    "lon": 130.7116307
  },
  {
    "type": "node",
    "id": 12504078510,
    "name": "平成",
    "lat": 32.7814411,
    "lon": 130.7031506
  }
]